locations:
  # USA
  - name: San Francisco
    lat: 37.803036
    lng: -122.427451
  - name: New Orleans
    lat: 29.938749
    lng: -90.118958
  - name: Maui
    lat: 20.7984
    lng: 156.3319
  - name: Big Island
    lat: 19.5429
    lng: 155.6659
  # ROMANIA
  - name: Bucharest
    lat: 44.4268
    lng: 26.1025
  # ENGLAND
  - name: London
    lat: 51.5074
    lng: -0.1278
  - name: Brighton
    lat: 50.8225
    lng: -0.1372
  # SCOTLAND
  - name: Edinburgh
    lat: 55.9533
    lng: -3.1883
  - name: St Andrews
    lat: 56.3398
    lng: -2.7967
  - name: Islay
    lat: 55.7363
    lng: -6.1771
  - name: Glasgow
    lat: 55.8642
    lng: -4.2518
  - name: Stirling
    lat: 56.1165
    lng: -3.9369
  # AUSTRALIA
  - name: Sydney
    lat: -33.8688
    lng: 151.2093
  - name: Melbourne
    lat: -37.8136
    lng: 144.9631
  - name: Byron Bay
    lat: -28.6474
    lng: 153.6020
  - name: Coles Bay
    lat: -42.0811
    lng: 148.2332
  - name: Hobart
    lat: -42.8821
    lng: 147.3272
  - name: Cairns
    lat: -16.9186
    lng: 145.7781
  - name: Airlie Beach
    lat: -20.2675
    lng: 148.7169
  - name: Nimbin
    lat: -28.5958
    lng: 153.2231
  - name: Jervis Bay
    lat: -35.0481
    lng: 150.7447
  - name: Blue Mountains
    lat: -33.4100
    lng: 150.3037
  # NEW ZEALAND
  - name: Christchurch
    lat: -43.5321
    lng: 172.6362
  - name: Aoraki (Mount Cook)
    lat: -43.5950
    lng: 170.1418
  - name: Wanaka
    lat: -44.7032
    lng: 169.1321
  - name: Queenstown
    lat: -45.0312
    lng: 168.6626
  - name: Te Anau
    lat: -45.4145
    lng: 167.7181
  - name: Hobbiton
    lat: -37.8723
    lng: 175.6834
  - name: Aukland
    lat: -36.8485
    lng: 174.7633
  - name: Waitomo Caves
    lat: -38.2615
    lng: 175.1145
  # ISRAEL
  - name: Tel Aviv
    lat: 32.0853
    lng: 34.7818
  - name: Golan Heights
    lat: 33.149390
    lng: 35.583166
  - name: Jerusalem
    lat: 31.7683
    lng: 35.2137
  - name: Be'er Sheva
    lat: 31.2530
    lng: 34.7915
  - name: Dead Sea
    lat: 31.5590
    lng: 35.4732
  - name: Masada
    lat: 31.3158
    lng: 35.3556
  # CHINA
  - name: Beijing
    lat: 39.9042
    lng: 116.4074
  - name: Qingdao
    lat: 36.0671
    lng: 120.3826
  - name: Suzhou
    lat: 31.2990
    lng: 120.5853
  - name: Shanghai
    lat: 31.2304
    lng: 121.4737
  - name: Xi An
    lat: 34.3416
    lng: 108.9398
  - name: Hong Kong
    lat: 22.3964
    lng: 114.1095
  # SOUTH KOREA
  - name: Seoul
    lat: 37.5665
    lng: 126.9780
  # INDONESIA
  - name: Kuta
    lat: -8.7224
    lng: 115.1767
  - name: Canggu
    lat: -8.6478
    lng: 115.1385
  - name: Uluwatu
    lat: -8.8291
    lng: 115.0849
  - name: Ubud
    lat: -8.5069
    lng: 115.2625
  - name: Gili Trawangan
    lat: -8.3483
    lng: 116.0384
  - name: Labuan Bajo
    lat: -8.4538
    lng: 119.8728
  - name: Bajawa
    lat: -8.8033
    lng: 120.9647
  - name: Kelimutu
    lat: -8.7689
    lng: 121.8221
  - name: Maumere
    lat: -8.6246
    lng: 122.2147
  - name: Kupang
    lat: -10.1772
    lng: 123.6070
  - name: Surabaya
    lat: -7.2575
    lng: 112.7521
  - name: Yogyakarta
    lat: -7.7956
    lng: 110.3695
  - name: Probolinggo
    lat: -7.7764
    lng: 113.2037
  - name: Ijen
    lat: -8.0584
    lng: 114.2433
  # MYANMAR
  - name: Yangon
    lat: 16.8661
    lng: 96.1951
  - name: Bagan
    lat: 21.1717
    lng: 94.8585
  - name: Shwenyaung
    lat: 20.7644
    lng: 96.9410
  # LAOS
  - name: Luang Prabang
    lat: 20.0656
    lng: 102.6216
  - name: Nong Khiaw
    lat: 20.5710
    lng: 102.6116
  - name: Vang Vieng
    lat: 18.9501
    lng: 102.4438
  - name: Vientiane
    lat: 17.9757
    lng: 102.6331
  # THAILAND
  - name: Bangkok
    lat: 13.7563
    lng: 100.5018
  - name: Sukhothai
    lat: 17.0056
    lng: 99.8264
  - name: Chiang Mai
    lat: 18.7061
    lng: 98.9817
  - name: Pai
    lat: 19.3582
    lng: 98.4405
  # SINGAPORE
  - name: Singapore
    lat: 1.3521
    lng: 103.8198
  # VIETNAM
  - name: Ho Chi Minh City
    lat: 10.8231
    lng: 106.6297
  - name: Hoi An
    lat: 15.8801
    lng: 108.3380
  - name: Phong Nha
    lat: 17.5908
    lng: 106.2834
  - name: Sa Pa
    lat: 22.3364
    lng: 103.8438
  - name: Ha Long Bay
    lat: 20.857795
    lng: 107.079010
  - name: Hanoi
    lat: 21.0278
    lng: 105.8342
